{
  "features": [
    {
      "geometry": {
        "coordinates": [
          8.979137,
          51.895957
        ],
        "type": "Point"
      },
      "properties": {
        "archive": "Lippische Landeskirche",
        "name": "(Bad) Meinberg",
        "path": "/de/alle-archive/nordrhein-westfalen/archiv-der-lippischen-landeskirche/bad-meinberg"
      },
      "type": "Feature"
    },
    {
      "geometry": {
        "coordinates": [
          8.755474,
          52.077152
        ],
        "type": "Point"
      },
      "properties": {
        "archive": "Lippische Landeskirche",
        "name": "(Bad) Salzuflen",
        "path": "/de/alle-archive/nordrhein-westfalen/archiv-der-lippischen-landeskirche/bad-salzuflen"
      },
      "type": "Feature"
    },
    {
      "geometry": {
        "coordinates": [
          9.078604,
          52.105696
        ],
        "type": "Point"
      },
      "properties": {
        "archive": "Lippische Landeskirche",
        "name": "Almena",
        "path": "/de/alle-archive/nordrhein-westfalen/archiv-der-lippischen-landeskirche/almena"
      },
      "type": "Feature"
    },
    {
      "geometry": {
        "coordinates": [
          9.123304,
          52.032367
        ],
        "type": "Point"
      },
      "properties": {
        "archive": "Lippische Landeskirche",
        "name": "Alverdissen",
        "path": "/de/alle-archive/nordrhein-westfalen/archiv-der-lippischen-landeskirche/alverdissen"
      },
      "type": "Feature"
    },
    {
      "geometry": {
        "coordinates": [
          8.738202,
          51.90922
        ],
        "type": "Point"
      },
      "properties": {
        "archive": "Lippische Landeskirche",
        "name": "Augustdorf",
        "path": "/de/alle-archive/nordrhein-westfalen/archiv-der-lippischen-landeskirche/augustdorf"
      },
      "type": "Feature"
    },
    {
      "geometry": {
        "coordinates": [
          9.112756,
          51.990955
        ],
        "type": "Point"
      },
      "properties": {
        "archive": "Lippische Landeskirche",
        "name": "Barntrup",
        "path": "/de/alle-archive/nordrhein-westfalen/archiv-der-lippischen-landeskirche/barntrup"
      },
      "type": "Feature"
    },
    {
      "geometry": {
        "coordinates": [
          9.065241,
          52.005325
        ],
        "type": "Point"
      },
      "properties": {
        "archive": "Lippische Landeskirche",
        "name": "Bega",
        "path": "/de/alle-archive/nordrhein-westfalen/archiv-der-lippischen-landeskirche/bega"
      },
      "type": "Feature"
    },
    {
      "geometry": {
        "coordinates": [
          8.821731,
          52.078738
        ],
        "type": "Point"
      },
      "properties": {
        "archive": "Lippische Landeskirche",
        "name": "Bergkirchen",
        "path": "/de/alle-archive/nordrhein-westfalen/archiv-der-lippischen-landeskirche/bergkirchen"
      },
      "type": "Feature"
    },
    {
      "geometry": {
        "coordinates": [
          9.096791,
          51.943447
        ],
        "type": "Point"
      },
      "properties": {
        "archive": "Lippische Landeskirche",
        "name": "Blomberg",
        "path": "/de/alle-archive/nordrhein-westfalen/archiv-der-lippischen-landeskirche/blomberg"
      },
      "type": "Feature"
    },
    {
      "geometry": {
        "coordinates": [
          8.916113,
          52.01899
        ],
        "type": "Point"
      },
      "properties": {
        "archive": "Lippische Landeskirche",
        "name": "Brake",
        "path": "/de/alle-archive/nordrhein-westfalen/archiv-der-lippischen-landeskirche/brake"
      },
      "type": "Feature"
    },
    {
      "geometry": {
        "coordinates": [
          9.127628,
          52.067679
        ],
        "type": "Point"
      },
      "properties": {
        "archive": "Lippische Landeskirche",
        "name": "B\u00f6singfeld",
        "path": "/de/alle-archive/nordrhein-westfalen/archiv-der-lippischen-landeskirche/boesingfeld"
      },
      "type": "Feature"
    },
    {
      "geometry": {
        "coordinates": [
          9.151585,
          52.1034
        ],
        "type": "Point"
      },
      "properties": {
        "archive": "Lippische Landeskirche",
        "name": "B\u00f6singfeld-Goldbeck",
        "path": "/de/alle-archive/nordrhein-westfalen/archiv-der-lippischen-landeskirche/boesingfeld-goldbeck"
      },
      "type": "Feature"
    },
    {
      "geometry": {
        "coordinates": [
          8.999199,
          51.956556
        ],
        "type": "Point"
      },
      "properties": {
        "archive": "Lippische Landeskirche",
        "name": "Cappel",
        "path": "/de/alle-archive/nordrhein-westfalen/archiv-der-lippischen-landeskirche/cappel"
      },
      "type": "Feature"
    },
    {
      "geometry": {
        "coordinates": [
          8.879153,
          51.936284
        ],
        "type": "Point"
      },
      "properties": {
        "archive": "Lippische Landeskirche",
        "name": "Detmold",
        "path": "/de/alle-archive/nordrhein-westfalen/archiv-der-lippischen-landeskirche/detmold"
      },
      "type": "Feature"
    },
    {
      "geometry": {
        "coordinates": [
          8.879153,
          51.936284
        ],
        "type": "Point"
      },
      "properties": {
        "archive": "Lippische Landeskirche",
        "name": "Detmold-Diakonissenhaus",
        "path": "/de/alle-archive/nordrhein-westfalen/archiv-der-lippischen-landeskirche/detmold-diakonissenhaus"
      },
      "type": "Feature"
    },
    {
      "geometry": {
        "coordinates": [
          8.879153,
          51.936284
        ],
        "type": "Point"
      },
      "properties": {
        "archive": "Lippische Landeskirche",
        "name": "Detmold-Milit\u00e4rgemeinde",
        "path": "/de/alle-archive/nordrhein-westfalen/archiv-der-lippischen-landeskirche/detmold-militaergemeinde"
      },
      "type": "Feature"
    },
    {
      "geometry": {
        "coordinates": [
          8.879153,
          51.936284
        ],
        "type": "Point"
      },
      "properties": {
        "archive": "Lippische Landeskirche",
        "name": "Detmold-Ost-vormals-Landgemeinde",
        "path": "/de/alle-archive/nordrhein-westfalen/archiv-der-lippischen-landeskirche/detmold-ost-vormals-landgemeinde"
      },
      "type": "Feature"
    },
    {
      "geometry": {
        "coordinates": [
          8.879153,
          51.936284
        ],
        "type": "Point"
      },
      "properties": {
        "archive": "Lippische Landeskirche",
        "name": "Detmold-West-vormals-Stadtgemeinde",
        "path": "/de/alle-archive/nordrhein-westfalen/archiv-der-lippischen-landeskirche/detmold-west-vormals-stadtgemeinde"
      },
      "type": "Feature"
    },
    {
      "geometry": {
        "coordinates": [
          8.879153,
          51.936284
        ],
        "type": "Point"
      },
      "properties": {
        "archive": "Lippische Landeskirche",
        "name": "Detmold-luth",
        "path": "/de/alle-archive/nordrhein-westfalen/archiv-der-lippischen-landeskirche/detmold-luth"
      },
      "type": "Feature"
    },
    {
      "geometry": {
        "coordinates": [
          8.879153,
          51.936284
        ],
        "type": "Point"
      },
      "properties": {
        "archive": "Lippische Landeskirche",
        "name": "Detmold_Anstalten_Landkrankenhaus-Diakonissenhaus-Versorgungshaus Zoar",
        "path": "/de/alle-archive/nordrhein-westfalen/archiv-der-lippischen-landeskirche/detmold-anstalten-landkrankenhaus-diakonissenhaus-versorgungshaus-zoar"
      },
      "type": "Feature"
    },
    {
      "geometry": {
        "coordinates": [
          8.994842,
          51.988203
        ],
        "type": "Point"
      },
      "properties": {
        "archive": "Lippische Landeskirche",
        "name": "Donop",
        "path": "/de/alle-archive/nordrhein-westfalen/archiv-der-lippischen-landeskirche/donop"
      },
      "type": "Feature"
    },
    {
      "geometry": {
        "coordinates": [
          9.253284,
          51.907317
        ],
        "type": "Point"
      },
      "properties": {
        "archive": "Lippische Landeskirche",
        "name": "Elbrinxen",
        "path": "/de/alle-archive/nordrhein-westfalen/archiv-der-lippischen-landeskirche/elbrinxen"
      },
      "type": "Feature"
    },
    {
      "geometry": {
        "coordinates": [
          9.302893,
          51.889026
        ],
        "type": "Point"
      },
      "properties": {
        "archive": "Lippische Landeskirche",
        "name": "Falkenhagen",
        "path": "/de/alle-archive/nordrhein-westfalen/archiv-der-lippischen-landeskirche/falkenhagen"
      },
      "type": "Feature"
    },
    {
      "geometry": {
        "coordinates": [
          8.838619,
          51.83681
        ],
        "type": "Point"
      },
      "properties": {
        "archive": "Lippische Landeskirche",
        "name": "Haustenbeck",
        "path": "/de/alle-archive/nordrhein-westfalen/archiv-der-lippischen-landeskirche/haustenbeck"
      },
      "type": "Feature"
    },
    {
      "geometry": {
        "coordinates": [
          8.84624,
          51.980018
        ],
        "type": "Point"
      },
      "properties": {
        "archive": "Lippische Landeskirche",
        "name": "Heiden",
        "path": "/de/alle-archive/nordrhein-westfalen/archiv-der-lippischen-landeskirche/heiden"
      },
      "type": "Feature"
    },
    {
      "geometry": {
        "coordinates": [
          8.878023,
          51.90712
        ],
        "type": "Point"
      },
      "properties": {
        "archive": "Lippische Landeskirche",
        "name": "Heiligenkirchen",
        "path": "/de/alle-archive/nordrhein-westfalen/archiv-der-lippischen-landeskirche/heiligenkirchen"
      },
      "type": "Feature"
    },
    {
      "geometry": {
        "coordinates": [
          8.709734,
          51.970068
        ],
        "type": "Point"
      },
      "properties": {
        "archive": "Lippische Landeskirche",
        "name": "Helpup",
        "path": "/de/alle-archive/nordrhein-westfalen/archiv-der-lippischen-landeskirche/helpup"
      },
      "type": "Feature"
    },
    {
      "geometry": {
        "coordinates": [
          8.843225,
          51.925537
        ],
        "type": "Point"
      },
      "properties": {
        "archive": "Lippische Landeskirche",
        "name": "Hiddesen",
        "path": "/de/alle-archive/nordrhein-westfalen/archiv-der-lippischen-landeskirche/hiddesen"
      },
      "type": "Feature"
    },
    {
      "geometry": {
        "coordinates": [
          8.843225,
          51.925537
        ],
        "type": "Point"
      },
      "properties": {
        "archive": "Lippische Landeskirche",
        "name": "Hiddesen-luth",
        "path": "/de/alle-archive/nordrhein-westfalen/archiv-der-lippischen-landeskirche/hiddesen-luth"
      },
      "type": "Feature"
    },
    {
      "geometry": {
        "coordinates": [
          8.996935,
          52.050024
        ],
        "type": "Point"
      },
      "properties": {
        "archive": "Lippische Landeskirche",
        "name": "Hillentrup",
        "path": "/de/alle-archive/nordrhein-westfalen/archiv-der-lippischen-landeskirche/hillentrup"
      },
      "type": "Feature"
    },
    {
      "geometry": {
        "coordinates": [
          8.948234,
          52.106815
        ],
        "type": "Point"
      },
      "properties": {
        "archive": "Lippische Landeskirche",
        "name": "Hohenhausen",
        "path": "/de/alle-archive/nordrhein-westfalen/archiv-der-lippischen-landeskirche/hohenhausen"
      },
      "type": "Feature"
    },
    {
      "geometry": {
        "coordinates": [
          8.945382,
          51.872762
        ],
        "type": "Point"
      },
      "properties": {
        "archive": "Lippische Landeskirche",
        "name": "Horn",
        "path": "/de/alle-archive/nordrhein-westfalen/archiv-der-lippischen-landeskirche/horn"
      },
      "type": "Feature"
    },
    {
      "geometry": {
        "coordinates": [
          9.048782,
          51.95041
        ],
        "type": "Point"
      },
      "properties": {
        "archive": "Lippische Landeskirche",
        "name": "Istrup",
        "path": "/de/alle-archive/nordrhein-westfalen/archiv-der-lippischen-landeskirche/istrup"
      },
      "type": "Feature"
    },
    {
      "geometry": {
        "coordinates": [
          8.791958,
          51.991408
        ],
        "type": "Point"
      },
      "properties": {
        "archive": "Lippische Landeskirche",
        "name": "Lage",
        "path": "/de/alle-archive/nordrhein-westfalen/archiv-der-lippischen-landeskirche/lage"
      },
      "type": "Feature"
    },
    {
      "geometry": {
        "coordinates": [
          8.791958,
          51.991408
        ],
        "type": "Point"
      },
      "properties": {
        "archive": "Lippische Landeskirche",
        "name": "Lage Bez.",
        "path": "/de/alle-archive/nordrhein-westfalen/archiv-der-lippischen-landeskirche/lage-bez"
      },
      "type": "Feature"
    },
    {
      "geometry": {
        "coordinates": [
          8.791958,
          51.991408
        ],
        "type": "Point"
      },
      "properties": {
        "archive": "Lippische Landeskirche",
        "name": "Lage Pfarrbezirk I",
        "path": "/de/alle-archive/nordrhein-westfalen/archiv-der-lippischen-landeskirche/lage-pfarrbezirk-i"
      },
      "type": "Feature"
    },
    {
      "geometry": {
        "coordinates": [
          8.791958,
          51.991408
        ],
        "type": "Point"
      },
      "properties": {
        "archive": "Lippische Landeskirche",
        "name": "Lage Pfarrbezirk II",
        "path": "/de/alle-archive/nordrhein-westfalen/archiv-der-lippischen-landeskirche/lage-pfarrbezirk-ii"
      },
      "type": "Feature"
    },
    {
      "geometry": {
        "coordinates": [
          8.791958,
          51.991408
        ],
        "type": "Point"
      },
      "properties": {
        "archive": "Lippische Landeskirche",
        "name": "Lage Pfarrbezirk III",
        "path": "/de/alle-archive/nordrhein-westfalen/archiv-der-lippischen-landeskirche/lage-pfarrbezirk-iii"
      },
      "type": "Feature"
    },
    {
      "geometry": {
        "coordinates": [
          8.964136,
          52.145509
        ],
        "type": "Point"
      },
      "properties": {
        "archive": "Lippische Landeskirche",
        "name": "Langenholzhausen",
        "path": "/de/alle-archive/nordrhein-westfalen/archiv-der-lippischen-landeskirche/langenholzhausen"
      },
      "type": "Feature"
    },
    {
      "geometry": {
        "coordinates": [
          8.894805,
          52.028112
        ],
        "type": "Point"
      },
      "properties": {
        "archive": "Lippische Landeskirche",
        "name": "Lemgo-St-Johann",
        "path": "/de/alle-archive/nordrhein-westfalen/archiv-der-lippischen-landeskirche/lemgo-st-johann"
      },
      "type": "Feature"
    },
    {
      "geometry": {
        "coordinates": [
          8.898839,
          52.025596
        ],
        "type": "Point"
      },
      "properties": {
        "archive": "Lippische Landeskirche",
        "name": "Lemgo-St-Marien-luth",
        "path": "/de/alle-archive/nordrhein-westfalen/archiv-der-lippischen-landeskirche/lemgo-st-marien-luth"
      },
      "type": "Feature"
    },
    {
      "geometry": {
        "coordinates": [
          8.902251,
          52.027842
        ],
        "type": "Point"
      },
      "properties": {
        "archive": "Lippische Landeskirche",
        "name": "Lemgo-St-Nicolai-luth",
        "path": "/de/alle-archive/nordrhein-westfalen/archiv-der-lippischen-landeskirche/lemgo-st-nicolai-luth"
      },
      "type": "Feature"
    },
    {
      "geometry": {
        "coordinates": [
          8.901289,
          52.028067
        ],
        "type": "Point"
      },
      "properties": {
        "archive": "Lippische Landeskirche",
        "name": "Lemgo-neue-evangelische",
        "path": "/de/alle-archive/nordrhein-westfalen/archiv-der-lippischen-landeskirche/lemgo-neue-evangelische"
      },
      "type": "Feature"
    },
    {
      "geometry": {
        "coordinates": [
          8.835867,
          52.025055
        ],
        "type": "Point"
      },
      "properties": {
        "archive": "Lippische Landeskirche",
        "name": "Lieme",
        "path": "/de/alle-archive/nordrhein-westfalen/archiv-der-lippischen-landeskirche/lieme"
      },
      "type": "Feature"
    },
    {
      "geometry": {
        "coordinates": [
          9.010887,
          52.084133
        ],
        "type": "Point"
      },
      "properties": {
        "archive": "Lippische Landeskirche",
        "name": "L\u00fcdenhausen",
        "path": "/de/alle-archive/nordrhein-westfalen/archiv-der-lippischen-landeskirche/luedenhausen"
      },
      "type": "Feature"
    },
    {
      "geometry": {
        "coordinates": [
          8.979137,
          51.895957
        ],
        "type": "Point"
      },
      "properties": {
        "archive": "Lippische Landeskirche",
        "name": "Meinberg",
        "path": "/de/alle-archive/nordrhein-westfalen/archiv-der-lippischen-landeskirche/meinberg"
      },
      "type": "Feature"
    },
    {
      "geometry": {
        "coordinates": [
          8.663873,
          51.960409
        ],
        "type": "Point"
      },
      "properties": {
        "archive": "Lippische Landeskirche",
        "name": "Oerlinghausen",
        "path": "/de/alle-archive/nordrhein-westfalen/archiv-der-lippischen-landeskirche/oerlinghausen"
      },
      "type": "Feature"
    },
    {
      "geometry": {
        "coordinates": [
          9.028541,
          51.914776
        ],
        "type": "Point"
      },
      "properties": {
        "archive": "Lippische Landeskirche",
        "name": "Reelkirchen",
        "path": "/de/alle-archive/nordrhein-westfalen/archiv-der-lippischen-landeskirche/reelkirchen"
      },
      "type": "Feature"
    },
    {
      "geometry": {
        "coordinates": [
          8.84479,
          51.809755
        ],
        "type": "Point"
      },
      "properties": {
        "archive": "Lippische Landeskirche",
        "name": "Schlangen",
        "path": "/de/alle-archive/nordrhein-westfalen/archiv-der-lippischen-landeskirche/schlangen"
      },
      "type": "Feature"
    },
    {
      "geometry": {
        "coordinates": [
          9.196806,
          51.877145
        ],
        "type": "Point"
      },
      "properties": {
        "archive": "Lippische Landeskirche",
        "name": "Schwalenberg",
        "path": "/de/alle-archive/nordrhein-westfalen/archiv-der-lippischen-landeskirche/schwalenberg"
      },
      "type": "Feature"
    },
    {
      "geometry": {
        "coordinates": [
          8.758191,
          52.070891
        ],
        "type": "Point"
      },
      "properties": {
        "archive": "Lippische Landeskirche",
        "name": "Sch\u00f6tmar",
        "path": "/de/alle-archive/nordrhein-westfalen/archiv-der-lippischen-landeskirche/schoetmar"
      },
      "type": "Feature"
    },
    {
      "geometry": {
        "coordinates": [
          9.062603,
          52.137555
        ],
        "type": "Point"
      },
      "properties": {
        "archive": "Lippische Landeskirche",
        "name": "Silixen",
        "path": "/de/alle-archive/nordrhein-westfalen/archiv-der-lippischen-landeskirche/silixen"
      },
      "type": "Feature"
    },
    {
      "geometry": {
        "coordinates": [
          9.168688,
          52.007305
        ],
        "type": "Point"
      },
      "properties": {
        "archive": "Lippische Landeskirche",
        "name": "Sonneborn",
        "path": "/de/alle-archive/nordrhein-westfalen/archiv-der-lippischen-landeskirche/sonneborn"
      },
      "type": "Feature"
    },
    {
      "geometry": {
        "coordinates": [
          8.739755,
          51.947013
        ],
        "type": "Point"
      },
      "properties": {
        "archive": "Lippische Landeskirche",
        "name": "Stapelage",
        "path": "/de/alle-archive/nordrhein-westfalen/archiv-der-lippischen-landeskirche/stapelage"
      },
      "type": "Feature"
    },
    {
      "geometry": {
        "coordinates": [
          8.907843,
          52.095843
        ],
        "type": "Point"
      },
      "properties": {
        "archive": "Lippische Landeskirche",
        "name": "Talle",
        "path": "/de/alle-archive/nordrhein-westfalen/archiv-der-lippischen-landeskirche/talle"
      },
      "type": "Feature"
    },
    {
      "geometry": {
        "coordinates": [
          8.988803,
          52.170785
        ],
        "type": "Point"
      },
      "properties": {
        "archive": "Lippische Landeskirche",
        "name": "Varenholz",
        "path": "/de/alle-archive/nordrhein-westfalen/archiv-der-lippischen-landeskirche/varenholz"
      },
      "type": "Feature"
    },
    {
      "geometry": {
        "coordinates": [
          9.102372,
          51.898019
        ],
        "type": "Point"
      },
      "properties": {
        "archive": "Lippische Landeskirche",
        "name": "W\u00f6bbel",
        "path": "/de/alle-archive/nordrhein-westfalen/archiv-der-lippischen-landeskirche/woebbel"
      },
      "type": "Feature"
    },
    {
      "geometry": {
        "coordinates": [
          8.793418,
          52.101543
        ],
        "type": "Point"
      },
      "properties": {
        "archive": "Lippische Landeskirche",
        "name": "W\u00fcsten",
        "path": "/de/alle-archive/nordrhein-westfalen/archiv-der-lippischen-landeskirche/wuesten"
      },
      "type": "Feature"
    }
  ],
  "type": "FeatureCollection"
}