{"features": [{"geometry": {"coordinates": [9.33955, 52.437676], "type": "Point"}, "properties": {"archive": "Niedersächsisches Landesarchiv", "district": "Kirchenbücher der Evangelisch-Lutherischen Landeskirche Schaumburg-Lippe", "name": "Altenhagen-Hagenburg", "path": "/de/alle-archive/niedersachsen/niedersaechsisches-landesarchiv/kirchenbuecher-der-evangelisch-lutherischen-landeskirche-schaumburg-lippe/altenhagen-hagenburg"}, "type": "Feature"}, {"geometry": {"coordinates": [9.257104, 52.412808], "type": "Point"}, "properties": {"archive": "Niedersächsisches Landesarchiv", "district": "Kirchenbücher der Evangelisch-Lutherischen Landeskirche Schaumburg-Lippe", "name": "Bergkirchen", "path": "/de/alle-archive/niedersachsen/niedersaechsisches-landesarchiv/kirchenbuecher-der-evangelisch-lutherischen-landeskirche-schaumburg-lippe/bergkirchen"}, "type": "Feature"}, {"geometry": {"coordinates": [9.048896, 52.261104], "type": "Point"}, "properties": {"archive": "Niedersächsisches Landesarchiv", "district": "Kirchenbücher der Evangelisch-Lutherischen Landeskirche Schaumburg-Lippe", "name": "Bückeburg", "path": "/de/alle-archive/niedersachsen/niedersaechsisches-landesarchiv/kirchenbuecher-der-evangelisch-lutherischen-landeskirche-schaumburg-lippe/bueckeburg"}, "type": "Feature"}, {"geometry": {"coordinates": [8.994038, 52.338866], "type": "Point"}, "properties": {"archive": "Niedersächsisches Landesarchiv", "district": "Kirchenbücher der Evangelisch-Lutherischen Landeskirche Schaumburg-Lippe", "name": "Frille", "path": "/de/alle-archive/niedersachsen/niedersaechsisches-landesarchiv/kirchenbuecher-der-evangelisch-lutherischen-landeskirche-schaumburg-lippe/frille"}, "type": "Feature"}, {"geometry": {"coordinates": [9.278476, 52.329415], "type": "Point"}, "properties": {"archive": "Niedersächsisches Landesarchiv", "district": "Kirchenbücher der Evangelisch-Lutherischen Landeskirche Schaumburg-Lippe", "name": "Heuerßen", "path": "/de/alle-archive/niedersachsen/niedersaechsisches-landesarchiv/kirchenbuecher-der-evangelisch-lutherischen-landeskirche-schaumburg-lippe/heuerssen"}, "type": "Feature"}, {"geometry": {"coordinates": [9.207129, 52.355866], "type": "Point"}, "properties": {"archive": "Niedersächsisches Landesarchiv", "district": "Kirchenbücher der Evangelisch-Lutherischen Landeskirche Schaumburg-Lippe", "name": "Lauenhagen", "path": "/de/alle-archive/niedersachsen/niedersaechsisches-landesarchiv/kirchenbuecher-der-evangelisch-lutherischen-landeskirche-schaumburg-lippe/lauenhagen"}, "type": "Feature"}, {"geometry": {"coordinates": [9.287, 52.3579], "type": "Point"}, "properties": {"archive": "Niedersächsisches Landesarchiv", "district": "Kirchenbücher der Evangelisch-Lutherischen Landeskirche Schaumburg-Lippe", "name": "Lindhorst", "path": "/de/alle-archive/niedersachsen/niedersaechsisches-landesarchiv/kirchenbuecher-der-evangelisch-lutherischen-landeskirche-schaumburg-lippe/lindhorst"}, "type": "Feature"}, {"geometry": {"coordinates": [9.147837, 52.342458], "type": "Point"}, "properties": {"archive": "Niedersächsisches Landesarchiv", "district": "Kirchenbücher der Evangelisch-Lutherischen Landeskirche Schaumburg-Lippe", "name": "Meerbeck", "path": "/de/alle-archive/niedersachsen/niedersaechsisches-landesarchiv/kirchenbuecher-der-evangelisch-lutherischen-landeskirche-schaumburg-lippe/meerbeck"}, "type": "Feature"}, {"geometry": {"coordinates": [9.05211, 52.2966], "type": "Point"}, "properties": {"archive": "Niedersächsisches Landesarchiv", "district": "Kirchenbücher der Evangelisch-Lutherischen Landeskirche Schaumburg-Lippe", "name": "Meinsen", "path": "/de/alle-archive/niedersachsen/niedersaechsisches-landesarchiv/kirchenbuecher-der-evangelisch-lutherischen-landeskirche-schaumburg-lippe/meinsen"}, "type": "Feature"}, {"geometry": {"coordinates": [9.004516, 52.272048], "type": "Point"}, "properties": {"archive": "Niedersächsisches Landesarchiv", "district": "Kirchenbücher der Evangelisch-Lutherischen Landeskirche Schaumburg-Lippe", "name": "Petzen", "path": "/de/alle-archive/niedersachsen/niedersaechsisches-landesarchiv/kirchenbuecher-der-evangelisch-lutherischen-landeskirche-schaumburg-lippe/petzen"}, "type": "Feature"}, {"geometry": {"coordinates": [9.23267, 52.3416], "type": "Point"}, "properties": {"archive": "Niedersächsisches Landesarchiv", "district": "Kirchenbücher der Evangelisch-Lutherischen Landeskirche Schaumburg-Lippe", "name": "Probsthagen", "path": "/de/alle-archive/niedersachsen/niedersaechsisches-landesarchiv/kirchenbuecher-der-evangelisch-lutherischen-landeskirche-schaumburg-lippe/probsthagen"}, "type": "Feature"}, {"geometry": {"coordinates": [9.20535, 52.328969], "type": "Point"}, "properties": {"archive": "Niedersächsisches Landesarchiv", "district": "Kirchenbücher der Evangelisch-Lutherischen Landeskirche Schaumburg-Lippe", "name": "Stadthagen", "path": "/de/alle-archive/niedersachsen/niedersaechsisches-landesarchiv/kirchenbuecher-der-evangelisch-lutherischen-landeskirche-schaumburg-lippe/stadthagen"}, "type": "Feature"}, {"geometry": {"coordinates": [9.1201, 52.2099], "type": "Point"}, "properties": {"archive": "Niedersächsisches Landesarchiv", "district": "Kirchenbücher der Evangelisch-Lutherischen Landeskirche Schaumburg-Lippe", "name": "Steinbergen", "path": "/de/alle-archive/niedersachsen/niedersaechsisches-landesarchiv/kirchenbuecher-der-evangelisch-lutherischen-landeskirche-schaumburg-lippe/steinbergen"}, "type": "Feature"}, {"geometry": {"coordinates": [9.358926, 52.45662], "type": "Point"}, "properties": {"archive": "Niedersächsisches Landesarchiv", "district": "Kirchenbücher der Evangelisch-Lutherischen Landeskirche Schaumburg-Lippe", "name": "Steinhude", "path": "/de/alle-archive/niedersachsen/niedersaechsisches-landesarchiv/kirchenbuecher-der-evangelisch-lutherischen-landeskirche-schaumburg-lippe/steinhude"}, "type": "Feature"}, {"geometry": {"coordinates": [9.150475, 52.289827], "type": "Point"}, "properties": {"archive": "Niedersächsisches Landesarchiv", "district": "Kirchenbücher der Evangelisch-Lutherischen Landeskirche Schaumburg-Lippe", "name": "Sülbeck", "path": "/de/alle-archive/niedersachsen/niedersaechsisches-landesarchiv/kirchenbuecher-der-evangelisch-lutherischen-landeskirche-schaumburg-lippe/suelbeck"}, "type": "Feature"}, {"geometry": {"coordinates": [9.10255, 52.2728], "type": "Point"}, "properties": {"archive": "Niedersächsisches Landesarchiv", "district": "Kirchenbücher der Evangelisch-Lutherischen Landeskirche Schaumburg-Lippe", "name": "Vehlen", "path": "/de/alle-archive/niedersachsen/niedersaechsisches-landesarchiv/kirchenbuecher-der-evangelisch-lutherischen-landeskirche-schaumburg-lippe/vehlen"}, "type": "Feature"}], "type": "FeatureCollection"}